{
  "data": [
    {
      "latitude": 53.133755,
      "longitude": 23.187804,
      "type": "address",
      "name": "Mieszka I 4A",
      "number": "4A",
      "postal_code": "15-054",
      "street": "Mieszka I",
      "confidence": 1,
      "region": "Podlaskie",
      "region_code": "PD",
      "county": "Bia\u0142ystok",
      "locality": "Bialystok",
      "administrative_area": "Bia\u0142ystok",
      "neighbourhood": null,
      "country": "Poland",
      "country_code": "POL",
      "continent": "Europe",
      "label": "Mieszka I 4A, Bialystok, PD, Poland"
    },
    {
      "latitude": 53.133419,
      "longitude": 23.188512,
      "type": "address",
      "name": "Mieszka I 4B",
      "number": "4B",
      "postal_code": "15-054",
      "street": "Mieszka I",
      "confidence": 1,
      "region": "Podlaskie",
      "region_code": "PD",
      "county": "Bia\u0142ystok",
      "locality": "Bialystok",
      "administrative_area": "Bia\u0142ystok",
      "neighbourhood": null,
      "country": "Poland",
      "country_code": "POL",
      "continent": "Europe",
      "label": "Mieszka I 4B, Bialystok, PD, Poland"
    },
    {
      "latitude": 53.134594,
      "longitude": 23.186137,
      "type": "address",
      "name": "Mieszka I 4",
      "number": "4",
      "postal_code": "15-054",
      "street": "Mieszka I",
      "confidence": 1,
      "region": "Podlaskie",
      "region_code": "PD",
      "county": "Bia\u0142ystok",
      "locality": "Bialystok",
      "administrative_area": "Bia\u0142ystok",
      "neighbourhood": null,
      "country": "Poland",
      "country_code": "POL",
      "continent": "Europe",
      "label": "Mieszka I 4, Bialystok, PD, Poland"
    }
  ]
}